{"type":"FeatureCollection","features":[{"type":"Feature","properties":{"Province":"Houet","Commune_Ph":"Bobo_Dioulasso","TYPE":"Balafon Dioula et Senoufo","Nom":"Kounnima"},"geometry":{"type":"Point","coordinates":[-4.288194,11.15765]}},{"type":"Feature","properties":{"Province":"Houet","Commune_Ph":"Bobo_Dioulasso","TYPE":"Balafon Dioula et Senoufo","Nom":"Farakan"},"geometry":{"type":"Point","coordinates":[-4.297293,11.181734]}},{"type":"Feature","properties":{"Province":"Houet","Commune_Ph":"Bobo_Dioulasso","TYPE":"Balafon Dioula et Senoufo","Nom":"Saint-Etienne"},"geometry":{"type":"Point","coordinates":[-4.279572,11.179378]}},{"type":"Feature","properties":{"Province":"Houet","Commune_Ph":"Karangasso Sambla","TYPE":"Balafon Sambla","Nom":"Karangasso Sambla"},"geometry":{"type":"Point","coordinates":[-4.647673,11.225564]}},{"type":"Feature","properties":{"Province":"Houet","Commune_Ph":"Karangasso Sambla","TYPE":"Balafon Sambla","Nom":"Kounseni"},"geometry":{"type":"Point","coordinates":[-4.756796,11.276423]}},{"type":"Feature","properties":{"Province":"Houet","Commune_Ph":"Karangasso Sambla","TYPE":"Balafon Sambla","Nom":"Koukolikan"},"geometry":{"type":"Point","coordinates":[-4.647793,11.172262]}},{"type":"Feature","properties":{"Province":"Houet","Commune_Ph":"Karangasso Sambla","TYPE":"Balafon Sambla","Nom":"Gognon"},"geometry":{"type":"Point","coordinates":[-4.628867,11.094608]}},{"type":"Feature","properties":{"Province":"Houet","Commune_Ph":"Karangasso Sambla","TYPE":"Balafon Sambla","Nom":"Torosso"},"geometry":{"type":"Point","coordinates":[-4.574561,11.14434]}},{"type":"Feature","properties":{"Province":"Houet","Commune_Ph":"Karangasso Sambla","TYPE":"Balafon Sambla","Nom":"Bainde"},"geometry":{"type":"Point","coordinates":[-4.614866,11.181717]}},{"type":"Feature","properties":{"Province":"Houet","Commune_Ph":"Karangasso Sambla","TYPE":"Balafon Sambla","Nom":"Koumbadougou"},"geometry":{"type":"Point","coordinates":[-4.588107,11.266272]}},{"type":"Feature","properties":{"Province":"Houet","Commune_Ph":"Karangasso Sambla","TYPE":"Balafon Sambla","Nom":"Maganfesso"},"geometry":{"type":"Point","coordinates":[-4.611642,11.287011]}},{"type":"Feature","properties":{"Province":"Houet","Commune_Ph":"Karangasso Sambla","TYPE":"Balafon Sambla","Nom":"Diofoloma"},"geometry":{"type":"Point","coordinates":[-4.625745,11.40163]}},{"type":"Feature","properties":{"Province":"Houet","Commune_Ph":"Toussiana","TYPE":"Balafon Toussian","Nom":"Toussiana"},"geometry":{"type":"Point","coordinates":[-4.614287,10.835182]}},{"type":"Feature","properties":{"Province":"Houet","Commune_Ph":"Toussiana","TYPE":"Balafon Toussian","Nom":"Tapioko"},"geometry":{"type":"Point","coordinates":[-4.708513,10.930511]}},{"type":"Feature","properties":{"Province":"Houet","Commune_Ph":"KARANGASSO-VIGUE","TYPE":"Balafon Vigue","Nom":"Deguele"},"geometry":{"type":"Point","coordinates":[-3.930446,11.091967]}},{"type":"Feature","properties":{"Province":"Houet","Commune_Ph":"KARANGASSO-VIGUE","TYPE":"Balafon Vigue","Nom":"Poya"},"geometry":{"type":"Point","coordinates":[-3.791234,11.06499]}},{"type":"Feature","properties":{"Province":"Houet","Commune_Ph":"KARANGASSO-VIGUE","TYPE":"Balafon Vigue","Nom":"Ouere"},"geometry":{"type":"Point","coordinates":[-3.818737,11.009193]}},{"type":"Feature","properties":{"Province":"Houet","Commune_Ph":"KARANGASSO-VIGUE","TYPE":"Balafon Vigue","Nom":"Klesso"},"geometry":{"type":"Point","coordinates":[-3.984329,10.944281]}},{"type":"Feature","properties":{"Province":"Houet","Commune_Ph":"KARANGASSO-VIGUE","TYPE":"Balafon Vigue","Nom":"Seya"},"geometry":{"type":"Point","coordinates":[-3.921098,10.927107]}},{"type":"Feature","properties":{"Province":"Houet","Commune_Ph":"KARANGASSO-VIGUE","TYPE":"Balafon Vigue","Nom":"Dan"},"geometry":{"type":"Point","coordinates":[-3.780223,10.926884]}},{"type":"Feature","properties":{"Province":"Houet","Commune_Ph":"KARANGASSO-VIGUE","TYPE":"Balafon Vigue","Nom":"Soumaguina"},"geometry":{"type":"Point","coordinates":[-3.828595,10.937048]}},{"type":"Feature","properties":{"Province":"Houet","Commune_Ph":"KARANGASSO-VIGUE","TYPE":"Balafon Vigue","Nom":"Mandiasso"},"geometry":{"type":"Point","coordinates":[-3.831334,10.901971]}},{"type":"Feature","properties":{"Province":"Houet","Commune_Ph":"KARANGASSO-VIGUE","TYPE":"Balafon Vigue","Nom":"Diosso"},"geometry":{"type":"Point","coordinates":[-3.891411,10.774792]}},{"type":"Feature","properties":{"Province":"Houet","Commune_Ph":"KARANGASSO-VIGUE","TYPE":"Balafon Vigue","Nom":"Koure Maganfesso"},"geometry":{"type":"Point","coordinates":[-3.944693,10.934468]}},{"type":"Feature","properties":{"Province":"Houet","Commune_Ph":"KARANGASSO-VIGUE","TYPE":"Balafon Vigue","Nom":"Pinguina"},"geometry":{"type":"Point","coordinates":[-3.805104,10.892699]}},{"type":"Feature","properties":{"Province":"Houet","Commune_Ph":"PENI","TYPE":"Balafon Dioula","Nom":"Peni"},"geometry":{"type":"Point","coordinates":[-4.47141,10.948118]}},{"type":"Feature","properties":{"Province":"Houet","Commune_Ph":"PENI","TYPE":"Balafon Dioula","Nom":"Tien"},"geometry":{"type":"Point","coordinates":[-4.538522,11.035069]}},{"type":"Feature","properties":{"Province":"Houet","Commune_Ph":"PENI","TYPE":"Balafon Dioula","Nom":"Kodara"},"geometry":{"type":"Point","coordinates":[-4.436189,11.053084]}},{"type":"Feature","properties":{"Province":"Houet","Commune_Ph":"PENI","TYPE":"Balafon Dioula","Nom":"Flande"},"geometry":{"type":"Point","coordinates":[-4.403588,11.003147]}},{"type":"Feature","properties":{"Province":"Houet","Commune_Ph":"PENI","TYPE":"Balafon Vigue","Nom":"Lanfiera"},"geometry":{"type":"Point","coordinates":[-4.256156,10.920896]}},{"type":"Feature","properties":{"Province":"Houet","Commune_Ph":"PENI","TYPE":"Balafon Vigue","Nom":"Koumandara"},"geometry":{"type":"Point","coordinates":[-4.289202,10.878298]}},{"type":"Feature","properties":{"Province":"Houet","Commune_Ph":"PENI","TYPE":"Balafon Dioula","Nom":"Samaradougou"},"geometry":{"type":"Point","coordinates":[-4.282094,10.830929]}},{"type":"Feature","properties":{"Province":"Houet","Commune_Ph":"PENI","TYPE":"Balafon Dioula","Nom":"Marabagasso"},"geometry":{"type":"Point","coordinates":[-4.212568,10.82583]}},{"type":"Feature","properties":{"Province":"Houet","Commune_Ph":"PENI","TYPE":"Balafon Dioula","Nom":"Dabokuy"},"geometry":{"type":"Point","coordinates":[-4.275231,10.771841]}},{"type":"Feature","properties":{"Province":"Houet","Commune_Ph":"PENI","TYPE":"Balafon Dioula","Nom":"Dogossesso"},"geometry":{"type":"Point","coordinates":[-4.159485,10.772088]}},{"type":"Feature","properties":{"Province":"Houet","Commune_Ph":"PENI","TYPE":"Balafon Dioula","Nom":"Dissini"},"geometry":{"type":"Point","coordinates":[-4.270986,10.716711]}},{"type":"Feature","properties":{"Province":"Houet","Commune_Ph":"PENI","TYPE":"Balafon Dioula","Nom":"Moussodogodougou"},"geometry":{"type":"Point","coordinates":[-4.304014,10.804751]}},{"type":"Feature","properties":{"Province":"Houet","Commune_Ph":"PENI","TYPE":"Balafon Dioula","Nom":"Noumoudara"},"geometry":{"type":"Point","coordinates":[-4.420386,10.977636]}},{"type":"Feature","properties":{"Province":"Houet","Commune_Ph":"PENI","TYPE":"Balafon Dioula","Nom":"Nyarafo"},"geometry":{"type":"Point","coordinates":[-4.376824,10.885087]}},{"type":"Feature","properties":{"Province":"Houet","Commune_Ph":"DANDE","TYPE":"Balafon Toussian","Nom":"Dande"},"geometry":{"type":"Point","coordinates":[-4.557028,11.583122]}},{"type":"Feature","properties":{"Province":"Houet","Commune_Ph":"DANDE","TYPE":"Balafon Toussian","Nom":"Lanfiera coura"},"geometry":{"type":"Point","coordinates":[-4.518705,11.539659]}},{"type":"Feature","properties":{"Province":"Houet","Commune_Ph":"DANDE","TYPE":"Balafon Toussian","Nom":"Koreba"},"geometry":{"type":"Point","coordinates":[-4.57769,11.665169]}},{"type":"Feature","properties":{"Province":"Kenedougou","Commune_Ph":"ORODARA","TYPE":"Balafon Siamou","Nom":"kotoudeni"},"geometry":{"type":"Point","coordinates":[-4.99521,10.972098]}},{"type":"Feature","properties":{"Province":"Kenedougou","Commune_Ph":"ORODARA","TYPE":"Balafon Siamou","Nom":"koua"},"geometry":{"type":"Point","coordinates":[-4.9702,10.934911]}},{"type":"Feature","properties":{"Province":"Kenedougou","Commune_Ph":"ORODARA","TYPE":"Balafon Siamou","Nom":"fon"},"geometry":{"type":"Point","coordinates":[-4.922193,10.965444]}},{"type":"Feature","properties":{"Province":"Kenedougou","Commune_Ph":"ORODARA","TYPE":"Balafon Siamou","Nom":"dou"},"geometry":{"type":"Point","coordinates":[-4.92016,10.906846]}},{"type":"Feature","properties":{"Province":"Kenedougou","Commune_Ph":"ORODARA","TYPE":"Balafon Siamou","Nom":"bandougou"},"geometry":{"type":"Point","coordinates":[-4.868874,10.976443]}},{"type":"Feature","properties":{"Province":"Kenedougou","Commune_Ph":"ORODARA","TYPE":"Balafon Siamou","Nom":"kourinion"},"geometry":{"type":"Point","coordinates":[-4.787664,10.986205]}},{"type":"Feature","properties":{"Province":"Kenedougou","Commune_Ph":"ORODARA","TYPE":"Balafon Siamou","Nom":"toussianmasso"},"geometry":{"type":"Point","coordinates":[-4.84228,10.982535]}},{"type":"Feature","properties":{"Province":"Kenedougou","Commune_Ph":"ORODARA","TYPE":"Balafon Siamou","Nom":"dogou"},"geometry":{"type":"Point","coordinates":[-4.994458,10.903515]}},{"type":"Feature","properties":{"Province":"Kenedougou","Commune_Ph":"ORODARA","TYPE":"Balafon Siamou","Nom":"Devake"},"geometry":{"type":"Point","coordinates":[-5.010426,10.874803]}},{"type":"Feature","properties":{"Province":"Kenedougou","Commune_Ph":"ORODARA","TYPE":"Balafon Siamou","Nom":"Niene v.c."},"geometry":{"type":"Point","coordinates":[-4.925876,11.008565]}},{"type":"Feature","properties":{"Province":"Kenedougou","Commune_Ph":"ORODARA","TYPE":"Balafon Siamou","Nom":"Nidara"},"geometry":{"type":"Point","coordinates":[-4.947558,11.03474]}},{"type":"Feature","properties":{"Province":"Kenedougou","Commune_Ph":"ORODARA","TYPE":"Balafon Siamou","Nom":"Tin"},"geometry":{"type":"Point","coordinates":[-4.950242,11.089183]}},{"type":"Feature","properties":{"Province":"Kenedougou","Commune_Ph":"KOURINION","TYPE":"Balafon Toussian","Nom":"Mina"},"geometry":{"type":"Point","coordinates":[-4.81852,11.016739]}},{"type":"Feature","properties":{"Province":"Kenedougou","Commune_Ph":"KOURINION","TYPE":"Balafon Toussian","Nom":"N'bie"},"geometry":{"type":"Point","coordinates":[-4.773197,11.039219]}},{"type":"Feature","properties":{"Province":"Kenedougou","Commune_Ph":"KOURINION","TYPE":"Balafon Toussian","Nom":"Banfoulague"},"geometry":{"type":"Point","coordinates":[-4.734238,11.13658]}},{"type":"Feature","properties":{"Province":"Kenedougou","Commune_Ph":"KOURINION","TYPE":"Balafon Toussian","Nom":"toussain-badougou"},"geometry":{"type":"Point","coordinates":[-4.862577,10.934953]}},{"type":"Feature","properties":{"Province":"Kenedougou","Commune_Ph":"KOURINION","TYPE":"Balafon Toussian","Nom":"bandougou"},"geometry":{"type":"Point","coordinates":[-4.868874,10.976443]}},{"type":"Feature","properties":{"Province":"Kenedougou","Commune_Ph":"KOURINION","TYPE":"Balafon Toussian","Nom":"toussianmasso"},"geometry":{"type":"Point","coordinates":[-4.84228,10.982535]}},{"type":"Feature","properties":{"Province":"Kenedougou","Commune_Ph":"KOURINION","TYPE":"Balafon Toussian","Nom":"nda"},"geometry":{"type":"Point","coordinates":[-4.839084,10.900501]}},{"type":"Feature","properties":{"Province":"Kenedougou","Commune_Ph":"DJIGOUERA","TYPE":"Balafon Toussian","Nom":"Djigouera"},"geometry":{"type":"Point","coordinates":[-4.914297,11.175069]}},{"type":"Feature","properties":{"Province":"Kenedougou","Commune_Ph":"DJIGOUERA","TYPE":"Balafon Toussian","Nom":"Serekeni"},"geometry":{"type":"Point","coordinates":[-5.012128,11.148342]}},{"type":"Feature","properties":{"Province":"Kenedougou","Commune_Ph":"DJIGOUERA","TYPE":"Balafon Toussian","Nom":"Diassanga"},"geometry":{"type":"Point","coordinates":[-4.892409,11.067297]}},{"type":"Feature","properties":{"Province":"Kenedougou","Commune_Ph":"DJIGOUERA","TYPE":"Balafon Toussian","Nom":"Kleni"},"geometry":{"type":"Point","coordinates":[-4.859396,11.081151]}},{"type":"Feature","properties":{"Province":"Kenedougou","Commune_Ph":"DJIGOUERA","TYPE":"Balafon Toussian","Nom":"Kaka"},"geometry":{"type":"Point","coordinates":[-4.861076,11.097946]}},{"type":"Feature","properties":{"Province":"Kenedougou","Commune_Ph":"DJIGOUERA","TYPE":"Balafon Toussian","Nom":"Gossamandara"},"geometry":{"type":"Point","coordinates":[-4.890355,11.112335]}},{"type":"Feature","properties":{"Province":"Kenedougou","Commune_Ph":"DJIGOUERA","TYPE":"Balafon Toussian","Nom":"Kuini"},"geometry":{"type":"Point","coordinates":[-4.982443,11.159061]}},{"type":"Feature","properties":{"Province":"Kenedougou","Commune_Ph":"DJIGOUERA","TYPE":"Balafon Toussian","Nom":"Dian"},"geometry":{"type":"Point","coordinates":[-4.879814,11.165426]}},{"type":"Feature","properties":{"Province":"Kenedougou","Commune_Ph":"DJIGOUERA","TYPE":"Balafon Toussian","Nom":"Soubakagnedougou"},"geometry":{"type":"Point","coordinates":[-4.866886,11.18815]}},{"type":"Feature","properties":{"Province":"Kenedougou","Commune_Ph":"DJIGOUERA","TYPE":"Balafon Toussian","Nom":"Kassanga"},"geometry":{"type":"Point","coordinates":[-4.887625,11.194167]}},{"type":"Feature","properties":{"Province":"Kenedougou","Commune_Ph":"DJIGOUERA","TYPE":"Balafon Toussian","Nom":"Kolokaka"},"geometry":{"type":"Point","coordinates":[-4.891941,11.210257]}},{"type":"Feature","properties":{"Province":"Kenedougou","Commune_Ph":"DJIGOUERA","TYPE":"Balafon Toussian","Nom":"Dissanga"},"geometry":{"type":"Point","coordinates":[-4.868389,11.209646]}},{"type":"Feature","properties":{"Province":"Kenedougou","Commune_Ph":"BANZON","TYPE":"Balafon Toussian","Nom":"Banzon"},"geometry":{"type":"Point","coordinates":[-4.797663,11.326882]}},{"type":"Feature","properties":{"Province":"Kenedougou","Commune_Ph":"BANZON","TYPE":"Balafon Toussian","Nom":"Nianwere"},"geometry":{"type":"Point","coordinates":[-4.843263,11.275691]}},{"type":"Feature","properties":{"Province":"Kenedougou","Commune_Ph":"N'DOROLA","TYPE":"Balafon Senoufo et Bolon","Nom":"Fadona"},"geometry":{"type":"Point","coordinates":[-4.906853,11.684533]}},{"type":"Feature","properties":{"Province":"Kenedougou","Commune_Ph":"N'DOROLA","TYPE":"Balafon Senoufo et Bolon","Nom":"Sikorla"},"geometry":{"type":"Point","coordinates":[-4.952974,11.730384]}},{"type":"Feature","properties":{"Province":"Kenedougou","Commune_Ph":"N'DOROLA","TYPE":"Balafon Senoufo et Bolon","Nom":"Siri"},"geometry":{"type":"Point","coordinates":[-4.854874,11.720742]}},{"type":"Feature","properties":{"Province":"Kenedougou","Commune_Ph":"N'DOROLA","TYPE":"Balafon Senoufo et Bolon","Nom":"Dingasso"},"geometry":{"type":"Point","coordinates":[-4.824914,11.681107]}},{"type":"Feature","properties":{"Province":"Kenedougou","Commune_Ph":"N'DOROLA","TYPE":"Balafon Senoufo et Bolon","Nom":"Famberela"},"geometry":{"type":"Point","coordinates":[-4.932892,11.834746]}},{"type":"Feature","properties":{"Province":"Kenedougou","Commune_Ph":"N'DOROLA","TYPE":"Balafon Senoufo et Bolon","Nom":"Sofina"},"geometry":{"type":"Point","coordinates":[-4.869097,11.820639]}},{"type":"Feature","properties":{"Province":"Kenedougou","Commune_Ph":"N'DOROLA","TYPE":"Balafon Senoufo et Bolon","Nom":"Tiengouera"},"geometry":{"type":"Point","coordinates":[-4.852268,11.847813]}},{"type":"Feature","properties":{"Province":"Kenedougou","Commune_Ph":"N'DOROLA","TYPE":"Balafon Senoufo et Bolon","Nom":"Seguedougou"},"geometry":{"type":"Point","coordinates":[-4.839174,11.856241]}},{"type":"Feature","properties":{"Province":"Kenedougou","Commune_Ph":"N'DOROLA","TYPE":"Balafon Senoufo et Bolon","Nom":"Din-Masssala"},"geometry":{"type":"Point","coordinates":[-4.880239,11.966726]}},{"type":"Feature","properties":{"Province":"Kenedougou","Commune_Ph":"N'DOROLA","TYPE":"Balafon Senoufo et Bolon","Nom":"Kabala"},"geometry":{"type":"Point","coordinates":[-4.971751,11.937997]}},{"type":"Feature","properties":{"Province":"Kenedougou","Commune_Ph":"N'DOROLA","TYPE":"Balafon Senoufo et Bolon","Nom":"Zinguina v.c."},"geometry":{"type":"Point","coordinates":[-4.966577,11.904003]}},{"type":"Feature","properties":{"Province":"Kenedougou","Commune_Ph":"N'DOROLA","TYPE":"Balafon Senoufo et Bolon","Nom":"Kaifouna"},"geometry":{"type":"Point","coordinates":[-4.947992,11.876926]}},{"type":"Feature","properties":{"Province":"Kenedougou","Commune_Ph":"N'DOROLA","TYPE":"Balafon Senoufo et Bolon","Nom":"Samorosso v.c."},"geometry":{"type":"Point","coordinates":[-4.934301,11.908249]}},{"type":"Feature","properties":{"Province":"Kenedougou","Commune_Ph":"N'DOROLA","TYPE":"Balafon Senoufo et Bolon","Nom":"Niene v.c."},"geometry":{"type":"Point","coordinates":[-4.862739,11.961031]}},{"type":"Feature","properties":{"Province":"Kenedougou","Commune_Ph":"N'DOROLA","TYPE":"Balafon Senoufo et Bolon","Nom":"Kagnagara"},"geometry":{"type":"Point","coordinates":[-4.812727,11.934087]}},{"type":"Feature","properties":{"Province":"Kenedougou","Commune_Ph":"N'DOROLA","TYPE":"Balafon Senoufo et Bolon","Nom":"Kouangouasso"},"geometry":{"type":"Point","coordinates":[-4.832932,11.957331]}},{"type":"Feature","properties":{"Province":"Kenedougou","Commune_Ph":"KANKALA","TYPE":"Balafon Senoufo et Bolon","Nom":"Tene"},"geometry":{"type":"Point","coordinates":[-5.077039,11.146779]}},{"type":"Feature","properties":{"Province":"Kenedougou","Commune_Ph":"KANKALA","TYPE":"Balafon Senoufo et Bolon","Nom":"Wolonkoto"},"geometry":{"type":"Point","coordinates":[-5.1477,11.097196]}},{"type":"Feature","properties":{"Province":"Kenedougou","Commune_Ph":"KANKALA","TYPE":"Balafon Senoufo et Bolon","Nom":"Nantandougou"},"geometry":{"type":"Point","coordinates":[-5.226161,11.103775]}},{"type":"Feature","properties":{"Province":"Kenedougou","Commune_Ph":"KANKALA","TYPE":"Balafon Senoufo et Bolon","Nom":"Mahon"},"geometry":{"type":"Point","coordinates":[-5.224157,11.043075]}},{"type":"Feature","properties":{"Province":"Kenedougou","Commune_Ph":"KANKALA","TYPE":"Balafon Senoufo et Bolon","Nom":"Manpodougou"},"geometry":{"type":"Point","coordinates":[-5.158551,11.046993]}},{"type":"Feature","properties":{"Province":"Kenedougou","Commune_Ph":"KANKALA","TYPE":"Balafon Senoufo et Bolon","Nom":"Bakaribougou"},"geometry":{"type":"Point","coordinates":[-5.117911,11.051049]}},{"type":"Feature","properties":{"Province":"Kenedougou","Commune_Ph":"KANKALA","TYPE":"Balafon Senoufo et Bolon","Nom":"Lanfiera"},"geometry":{"type":"Point","coordinates":[-5.115829,11.059253]}},{"type":"Feature","properties":{"Province":"Kenedougou","Commune_Ph":"KANKALA","TYPE":"Balafon Senoufo et Bolon","Nom":"Bama"},"geometry":{"type":"Point","coordinates":[-5.285708,11.024189]}},{"type":"Feature","properties":{"Province":"Kenedougou","Commune_Ph":"KANKALA","TYPE":"Balafon Senoufo et Bolon","Nom":"Kokouna"},"geometry":{"type":"Point","coordinates":[-5.363904,10.991283]}},{"type":"Feature","properties":{"Province":"Kenedougou","Commune_Ph":"KANKALA","TYPE":"Balafon Senoufo et Bolon","Nom":"Sayaga"},"geometry":{"type":"Point","coordinates":[-5.320663,10.982344]}},{"type":"Feature","properties":{"Province":"Kenedougou","Commune_Ph":"KANKALA","TYPE":"Balafon Senoufo et Bolon","Nom":"Kotoura"},"geometry":{"type":"Point","coordinates":[-5.267467,10.973879]}},{"type":"Feature","properties":{"Province":"Kenedougou","Commune_Ph":"KANKALA","TYPE":"Balafon Senoufo et Bolon","Nom":"Kaniadougou"},"geometry":{"type":"Point","coordinates":[-5.242367,10.904304]}},{"type":"Feature","properties":{"Province":"Kenedougou","Commune_Ph":"KOUROUMA","TYPE":"Balafon Senoufo et Bolon","Nom":"Katafona"},"geometry":{"type":"Point","coordinates":[-4.944403,11.563649]}},{"type":"Feature","properties":{"Province":"Kenedougou","Commune_Ph":"KOUROUMA","TYPE":"Balafon Senoufo et Bolon","Nom":"Foulasso"},"geometry":{"type":"Point","coordinates":[-4.905014,11.510843]}},{"type":"Feature","properties":{"Province":"Kenedougou","Commune_Ph":"KOUROUMA","TYPE":"Balafon Senoufo et Bolon","Nom":"Demmboubourla"},"geometry":{"type":"Point","coordinates":[-4.900358,11.53527]}},{"type":"Feature","properties":{"Province":"Kenedougou","Commune_Ph":"KOUROUMA","TYPE":"Balafon Senoufo et Bolon","Nom":"Fananka"},"geometry":{"type":"Point","coordinates":[-4.829815,11.515682]}},{"type":"Feature","properties":{"Province":"Kenedougou","Commune_Ph":"KOUROUMA","TYPE":"Balafon Senoufo et Bolon","Nom":"Faniga v.c."},"geometry":{"type":"Point","coordinates":[-4.861306,11.540304]}},{"type":"Feature","properties":{"Province":"Kenedougou","Commune_Ph":"KOUROUMA","TYPE":"Balafon Senoufo et Bolon","Nom":"Sougouma"},"geometry":{"type":"Point","coordinates":[-4.887762,11.623908]}},{"type":"Feature","properties":{"Province":"Kenedougou","Commune_Ph":"KOUROUMA","TYPE":"Balafon Senoufo et Bolon","Nom":"Djigouera"},"geometry":{"type":"Point","coordinates":[-4.737052,11.684183]}},{"type":"Feature","properties":{"Province":"Kenedougou","Commune_Ph":"KOUROUMA","TYPE":"Balafon Senoufo et Bolon","Nom":"Dounio v.c."},"geometry":{"type":"Point","coordinates":[-4.735994,11.621589]}},{"type":"Feature","properties":{"Province":"Kenedougou","Commune_Ph":"KOUROUMA","TYPE":"Balafon Senoufo et Bolon","Nom":"Binguema v.c."},"geometry":{"type":"Point","coordinates":[-4.575213,11.550767]}},{"type":"Feature","properties":{"Province":"Kenedougou","Commune_Ph":"KOUROUMA","TYPE":"Balafon Senoufo et Bolon","Nom":"Sabou"},"geometry":{"type":"Point","coordinates":[-4.667454,11.677717]}},{"type":"Feature","properties":{"Province":"Kenedougou","Commune_Ph":"KOUROUMA","TYPE":"Balafon Senoufo et Bolon","Nom":"Fara"},"geometry":{"type":"Point","coordinates":[-4.671313,11.612859]}},{"type":"Feature","properties":{"Province":"Kenedougou","Commune_Ph":"KOUROUMA","TYPE":"Balafon Senoufo et Bolon","Nom":"Zamakologo v.c."},"geometry":{"type":"Point","coordinates":[-4.7223,11.585214]}},{"type":"Feature","properties":{"Province":"Kenedougou","Commune_Ph":"KOUROUMA","TYPE":"Balafon Senoufo et Bolon","Nom":"Kabala"},"geometry":{"type":"Point","coordinates":[-4.76001,11.533704]}},{"type":"Feature","properties":{"Province":"Kenedougou","Commune_Ph":"KOUROUMA","TYPE":"Balafon Senoufo et Bolon","Nom":"Kokoro"},"geometry":{"type":"Point","coordinates":[-4.724271,11.493583]}},{"type":"Feature","properties":{"Province":"Kenedougou","Commune_Ph":"KOUROUMA","TYPE":"Balafon Senoufo et Bolon","Nom":"Sadina"},"geometry":{"type":"Point","coordinates":[-4.62295,11.497925]}},{"type":"Feature","properties":{"Province":"Kenedougou","Commune_Ph":"MOROLABA","TYPE":"Balafon Senoufo et Bolon","Nom":"Niamberela"},"geometry":{"type":"Point","coordinates":[-5.110785,11.867153]}},{"type":"Feature","properties":{"Province":"Kenedougou","Commune_Ph":"MOROLABA","TYPE":"Balafon Senoufo et Bolon","Nom":"Ngolokela"},"geometry":{"type":"Point","coordinates":[-5.125721,11.934074]}},{"type":"Feature","properties":{"Province":"Kenedougou","Commune_Ph":"MOROLABA","TYPE":"Balafon Senoufo et Bolon","Nom":"Nanzorla"},"geometry":{"type":"Point","coordinates":[-5.076702,11.917503]}},{"type":"Feature","properties":{"Province":"Kenedougou","Commune_Ph":"MOROLABA","TYPE":"Balafon Senoufo et Bolon","Nom":"Ngorolaba"},"geometry":{"type":"Point","coordinates":[-5.018707,11.900164]}},{"type":"Feature","properties":{"Province":"Kenedougou","Commune_Ph":"MOROLABA","TYPE":"Balafon Senoufo et Bolon","Nom":"Zanguina"},"geometry":{"type":"Point","coordinates":[-5.096281,11.843554]}},{"type":"Feature","properties":{"Province":"Kenedougou","Commune_Ph":"MOROLABA","TYPE":"Balafon Senoufo et Bolon","Nom":"Katana"},"geometry":{"type":"Point","coordinates":[-5.157217,11.834719]}},{"type":"Feature","properties":{"Province":"Kenedougou","Commune_Ph":"MOROLABA","TYPE":"Balafon Senoufo et Bolon","Nom":"Tina"},"geometry":{"type":"Point","coordinates":[-5.2158,11.794087]}},{"type":"Feature","properties":{"Province":"Kenedougou","Commune_Ph":"MOROLABA","TYPE":"Balafon Senoufo et Bolon","Nom":"Sindorola"},"geometry":{"type":"Point","coordinates":[-5.251326,11.798589]}},{"type":"Feature","properties":{"Province":"Kenedougou","Commune_Ph":"MOROLABA","TYPE":"Balafon Senoufo et Bolon","Nom":"Temetemesso"},"geometry":{"type":"Point","coordinates":[-5.209912,11.764473]}},{"type":"Feature","properties":{"Province":"Kenedougou","Commune_Ph":"MOROLABA","TYPE":"Balafon Senoufo et Bolon","Nom":"Zanfara"},"geometry":{"type":"Point","coordinates":[-5.015729,11.755608]}},{"type":"Feature","properties":{"Province":"Kenedougou","Commune_Ph":"MOROLABA","TYPE":"Balafon Senoufo et Bolon","Nom":"Odona"},"geometry":{"type":"Point","coordinates":[-5.010983,11.804214]}},{"type":"Feature","properties":{"Province":"Kenedougou","Commune_Ph":"MOROLABA","TYPE":"Balafon Senoufo et Bolon","Nom":"Sokorola"},"geometry":{"type":"Point","coordinates":[-5.107595,11.852047]}},{"type":"Feature","properties":{"Province":"Kenedougou","Commune_Ph":"MOROLABA","TYPE":"Balafon Senoufo et Bolon","Nom":"Dinso"},"geometry":{"type":"Point","coordinates":[-5.097429,11.822054]}},{"type":"Feature","properties":{"Province":"Kenedougou","Commune_Ph":"MOROLABA","TYPE":"Balafon Senoufo et Bolon","Nom":"Farkasso"},"geometry":{"type":"Point","coordinates":[-5.028937,11.732855]}},{"type":"Feature","properties":{"Province":"Kenedougou","Commune_Ph":"SINDO","TYPE":"Balafon Senoufo et Bolon","Nom":"Sindo"},"geometry":{"type":"Point","coordinates":[-5.189628,11.545108]}},{"type":"Feature","properties":{"Province":"Kenedougou","Commune_Ph":"SINDO","TYPE":"Balafon Senoufo et Bolon","Nom":"Niamana"},"geometry":{"type":"Point","coordinates":[-5.197123,11.621012]}},{"type":"Feature","properties":{"Province":"Kenedougou","Commune_Ph":"SINDO","TYPE":"Balafon Senoufo et Bolon","Nom":"Senasso"},"geometry":{"type":"Point","coordinates":[-5.107494,11.597025]}},{"type":"Feature","properties":{"Province":"Kenedougou","Commune_Ph":"SINDO","TYPE":"Balafon Senoufo et Bolon","Nom":"Lelasso"},"geometry":{"type":"Point","coordinates":[-5.091263,11.541929]}},{"type":"Feature","properties":{"Province":"Kenedougou","Commune_Ph":"SINDO","TYPE":"Balafon Senoufo et Bolon","Nom":"Bleni"},"geometry":{"type":"Point","coordinates":[-5.053546,11.561902]}},{"type":"Feature","properties":{"Province":"Kenedougou","Commune_Ph":"SINDO","TYPE":"Balafon Senoufo et Bolon","Nom":"N'gorlani"},"geometry":{"type":"Point","coordinates":[-5.124104,11.489705]}},{"type":"Feature","properties":{"Province":"Kenedougou","Commune_Ph":"SINDO","TYPE":"Balafon Senoufo et Bolon","Nom":"Din"},"geometry":{"type":"Point","coordinates":[-5.152988,11.437869]}},{"type":"Feature","properties":{"Province":"Kenedougou","Commune_Ph":"SINDO","TYPE":"Balafon Senoufo et Bolon","Nom":"Blari"},"geometry":{"type":"Point","coordinates":[-5.114522,11.28565]}},{"type":"Feature","properties":{"Province":"Kenedougou","Commune_Ph":"SINDO","TYPE":"Balafon Senoufo et Bolon","Nom":"Niakara"},"geometry":{"type":"Point","coordinates":[-5.124433,11.294735]}},{"type":"Feature","properties":{"Province":"Kenedougou","Commune_Ph":"SINDO","TYPE":"Balafon Senoufo et Bolon","Nom":"Kati"},"geometry":{"type":"Point","coordinates":[-5.128207,11.322255]}},{"type":"Feature","properties":{"Province":"Kenedougou","Commune_Ph":"KOLOKO","TYPE":"Balafon Senoufo et Bolon","Nom":"Koloko"},"geometry":{"type":"Point","coordinates":[-5.311084,11.08028]}},{"type":"Feature","properties":{"Province":"Kenedougou","Commune_Ph":"KOLOKO","TYPE":"Balafon Senoufo et Bolon","Nom":"Brama"},"geometry":{"type":"Point","coordinates":[-5.19277,11.425156]}},{"type":"Feature","properties":{"Province":"Kenedougou","Commune_Ph":"KOLOKO","TYPE":"Balafon Senoufo et Bolon","Nom":"Fama"},"geometry":{"type":"Point","coordinates":[-5.17159,11.381797]}},{"type":"Feature","properties":{"Province":"Kenedougou","Commune_Ph":"KOLOKO","TYPE":"Balafon Senoufo et Bolon","Nom":"Galebougou"},"geometry":{"type":"Point","coordinates":[-5.237171,11.338125]}},{"type":"Feature","properties":{"Province":"Kenedougou","Commune_Ph":"KOLOKO","TYPE":"Balafon Senoufo et Bolon","Nom":"Zetonasso"},"geometry":{"type":"Point","coordinates":[-5.227086,11.276303]}},{"type":"Feature","properties":{"Province":"Kenedougou","Commune_Ph":"KOLOKO","TYPE":"Balafon Senoufo et Bolon","Nom":"Dobougou"},"geometry":{"type":"Point","coordinates":[-5.191012,11.219454]}},{"type":"Feature","properties":{"Province":"Kenedougou","Commune_Ph":"KOLOKO","TYPE":"Balafon Senoufo et Bolon","Nom":"Nigolo"},"geometry":{"type":"Point","coordinates":[-5.162311,11.218091]}},{"type":"Feature","properties":{"Province":"Kenedougou","Commune_Ph":"KOLOKO","TYPE":"Balafon Senoufo et Bolon","Nom":"Dialakoro"},"geometry":{"type":"Point","coordinates":[-5.211659,11.183892]}},{"type":"Feature","properties":{"Province":"Kenedougou","Commune_Ph":"KOLOKO","TYPE":"Balafon Senoufo et Bolon","Nom":"Chokoro"},"geometry":{"type":"Point","coordinates":[-5.157243,11.185238]}},{"type":"Feature","properties":{"Province":"Kenedougou","Commune_Ph":"KOLOKO","TYPE":"Balafon Senoufo et Bolon","Nom":"Kouana"},"geometry":{"type":"Point","coordinates":[-5.090398,11.175581]}},{"type":"Feature","properties":{"Province":"Kenedougou","Commune_Ph":"KOLOKO","TYPE":"Balafon Senoufo et Bolon","Nom":"Banakoro"},"geometry":{"type":"Point","coordinates":[-5.097949,11.178158]}},{"type":"Feature","properties":{"Province":"Kenedougou","Commune_Ph":"KOLOKO","TYPE":"Balafon Senoufo et Bolon","Nom":"Bakouaro"},"geometry":{"type":"Point","coordinates":[-5.188081,11.130164]}},{"type":"Feature","properties":{"Province":"Kenedougou","Commune_Ph":"KOLOKO","TYPE":"Balafon Senoufo et Bolon","Nom":"Imatoro"},"geometry":{"type":"Point","coordinates":[-5.236137,11.145906]}},{"type":"Feature","properties":{"Province":"Kenedougou","Commune_Ph":"KOLOKO","TYPE":"Balafon Senoufo et Bolon","Nom":"Kartasso"},"geometry":{"type":"Point","coordinates":[-5.253637,11.143733]}},{"type":"Feature","properties":{"Province":"Kenedougou","Commune_Ph":"KOLOKO","TYPE":"Balafon Senoufo et Bolon","Nom":"Sintasso"},"geometry":{"type":"Point","coordinates":[-5.301866,11.170541]}},{"type":"Feature","properties":{"Province":"Kenedougou","Commune_Ph":"KOLOKO","TYPE":"Balafon Senoufo et Bolon","Nom":"Ntobougou"},"geometry":{"type":"Point","coordinates":[-5.335467,11.070983]}},{"type":"Feature","properties":{"Province":"Kenedougou","Commune_Ph":"KOLOKO","TYPE":"Balafon Senoufo et Bolon","Nom":"Sifarasso"},"geometry":{"type":"Point","coordinates":[-5.452286,11.06121]}},{"type":"Feature","properties":{"Province":"Kenedougou","Commune_Ph":"KOLOKO","TYPE":"Balafon Senoufo et Bolon","Nom":"Sokoroni"},"geometry":{"type":"Point","coordinates":[-5.384099,11.046909]}},{"type":"Feature","properties":{"Province":"Kenedougou","Commune_Ph":"KOLOKO","TYPE":"Balafon Senoufo et Bolon","Nom":"Nifanasso"},"geometry":{"type":"Point","coordinates":[-5.384474,11.084164]}},{"type":"Feature","properties":{"Province":"Kenedougou","Commune_Ph":"KOLOKO","TYPE":"Balafon Senoufo et Bolon","Nom":"Dinso"},"geometry":{"type":"Point","coordinates":[-5.218312,11.196848]}},{"type":"Feature","properties":{"Province":"Kenedougou","Commune_Ph":"KOLOKO","TYPE":"Balafon Senoufo et Bolon","Nom":"Saredougou"},"geometry":{"type":"Point","coordinates":[-5.188449,11.158603]}},{"type":"Feature","properties":{"Province":"Kenedougou","Commune_Ph":"KOLOKO","TYPE":"Balafon Senoufo et Bolon","Nom":"Longoro"},"geometry":{"type":"Point","coordinates":[-5.102142,11.156528]}},{"type":"Feature","properties":{"Province":"Kenedougou","Commune_Ph":"KOLOKO","TYPE":"Balafon Senoufo et Bolon","Nom":"Banzani"},"geometry":{"type":"Point","coordinates":[-5.239369,11.393335]}},{"type":"Feature","properties":{"Province":"Kenedougou","Commune_Ph":"KAYAN","TYPE":"Balafon Senoufo et Bolon","Nom":"Kayan"},"geometry":{"type":"Point","coordinates":[-4.737652,11.830993]}},{"type":"Feature","properties":{"Province":"Kenedougou","Commune_Ph":"KAYAN","TYPE":"Balafon Senoufo et Bolon","Nom":"Teoule"},"geometry":{"type":"Point","coordinates":[-4.789218,11.738027]}},{"type":"Feature","properties":{"Province":"Kenedougou","Commune_Ph":"KAYAN","TYPE":"Balafon Senoufo et Bolon","Nom":"Were"},"geometry":{"type":"Point","coordinates":[-4.817465,11.831813]}},{"type":"Feature","properties":{"Province":"Kenedougou","Commune_Ph":"KAYAN","TYPE":"Balafon Senoufo et Bolon","Nom":"Sokorani"},"geometry":{"type":"Point","coordinates":[-4.796372,11.828069]}},{"type":"Feature","properties":{"Province":"Kenedougou","Commune_Ph":"KAYAN","TYPE":"Balafon Senoufo et Bolon","Nom":"Dionkele"},"geometry":{"type":"Point","coordinates":[-4.72629,11.782465]}},{"type":"Feature","properties":{"Province":"Kenedougou","Commune_Ph":"KAYAN","TYPE":"Balafon Senoufo et Bolon","Nom":"Niena"},"geometry":{"type":"Point","coordinates":[-4.725716,11.72409]}},{"type":"Feature","properties":{"Province":"Kenedougou","Commune_Ph":"KAYAN","TYPE":"Balafon Senoufo et Bolon","Nom":"N'doro"},"geometry":{"type":"Point","coordinates":[-4.73305,11.885531]}},{"type":"Feature","properties":{"Province":"Kenedougou","Commune_Ph":"KAYAN","TYPE":"Balafon Senoufo et Bolon","Nom":"Zangassoni"},"geometry":{"type":"Point","coordinates":[-4.709577,11.905489]}},{"type":"Feature","properties":{"Province":"Kenedougou","Commune_Ph":"KAYAN","TYPE":"Balafon Senoufo et Bolon","Nom":"N'gorolani"},"geometry":{"type":"Point","coordinates":[-4.730649,11.929596]}},{"type":"Feature","properties":{"Province":"Kenedougou","Commune_Ph":"KAYAN","TYPE":"Balafon Senoufo et Bolon","Nom":"N'dosso"},"geometry":{"type":"Point","coordinates":[-4.763166,11.965398]}},{"type":"Feature","properties":{"Province":"Kenedougou","Commune_Ph":"KAYAN","TYPE":"Balafon Senoufo et Bolon","Nom":"Fofara"},"geometry":{"type":"Point","coordinates":[-4.719959,11.998598]}},{"type":"Feature","properties":{"Province":"Kenedougou","Commune_Ph":"KAYAN","TYPE":"Balafon Senoufo et Bolon","Nom":"Tigan"},"geometry":{"type":"Point","coordinates":[-4.678435,11.888057]}},{"type":"Feature","properties":{"Province":"Kenedougou","Commune_Ph":"KAYAN","TYPE":"Balafon Senoufo et Bolon","Nom":"Kouroumani"},"geometry":{"type":"Point","coordinates":[-4.638314,11.852793]}},{"type":"Feature","properties":{"Province":"Kenedougou","Commune_Ph":"KAYAN","TYPE":"Balafon Senoufo et Bolon","Nom":"Seye"},"geometry":{"type":"Point","coordinates":[-4.662977,11.800009]}},{"type":"Feature","properties":{"Province":"Kenedougou","Commune_Ph":"KAYAN","TYPE":"Balafon Senoufo et Bolon","Nom":"N'dana"},"geometry":{"type":"Point","coordinates":[-4.701313,11.777481]}},{"type":"Feature","properties":{"Province":"Kenedougou","Commune_Ph":"KAYAN","TYPE":"Balafon Senoufo et Bolon","Nom":"Sien"},"geometry":{"type":"Point","coordinates":[-4.655202,11.77646]}},{"type":"Feature","properties":{"Province":"Kenedougou","Commune_Ph":"SAMOROGOUAN","TYPE":"Balafon Samogho et toussian","Nom":"Smairi"},"geometry":{"type":"Point","coordinates":[-5.070603,11.609114]}},{"type":"Feature","properties":{"Province":"Kenedougou","Commune_Ph":"SAMOROGOUAN","TYPE":"Balafon Samogho et toussian","Nom":"Fankara"},"geometry":{"type":"Point","coordinates":[-5.023331,11.555083]}},{"type":"Feature","properties":{"Province":"Kenedougou","Commune_Ph":"SAMOROGOUAN","TYPE":"Balafon Samogho et toussian","Nom":"Dana"},"geometry":{"type":"Point","coordinates":[-5.014897,11.47262]}},{"type":"Feature","properties":{"Province":"Kenedougou","Commune_Ph":"SAMOROGOUAN","TYPE":"Balafon Samogho et toussian","Nom":"Sourou"},"geometry":{"type":"Point","coordinates":[-5.070898,11.408807]}},{"type":"Feature","properties":{"Province":"Kenedougou","Commune_Ph":"SAMOROGOUAN","TYPE":"Balafon Samogho et toussian","Nom":"Soungalobougou"},"geometry":{"type":"Point","coordinates":[-5.13562,11.254607]}},{"type":"Feature","properties":{"Province":"Kenedougou","Commune_Ph":"SAMOROGOUAN","TYPE":"Balafon Samogho et toussian","Nom":"Sounkolo"},"geometry":{"type":"Point","coordinates":[-5.07813,11.213908]}},{"type":"Feature","properties":{"Province":"Kenedougou","Commune_Ph":"SAMOROGOUAN","TYPE":"Balafon Samogho et toussian","Nom":"Karna"},"geometry":{"type":"Point","coordinates":[-5.024978,11.458568]}},{"type":"Feature","properties":{"Province":"Kenedougou","Commune_Ph":"SAMOROGOUAN","TYPE":"Balafon Samogho et toussian","Nom":"Lanfiera v.c."},"geometry":{"type":"Point","coordinates":[-4.923259,11.281402]}},{"type":"Feature","properties":{"Province":"Kenedougou","Commune_Ph":"SAMOROGOUAN","TYPE":"Balafon Samogho et toussian","Nom":"Tenasso"},"geometry":{"type":"Point","coordinates":[-4.932801,11.321031]}},{"type":"Feature","properties":{"Province":"Kenedougou","Commune_Ph":"SAMOROGOUAN","TYPE":"Balafon Samogho et toussian","Nom":"N'gana"},"geometry":{"type":"Point","coordinates":[-4.849,11.432706]}},{"type":"Feature","properties":{"Province":"Kenedougou","Commune_Ph":"SAMOROGOUAN","TYPE":"Balafon Samogho et toussian","Nom":"Sokorola"},"geometry":{"type":"Point","coordinates":[-4.806806,11.40849]}},{"type":"Feature","properties":{"Province":"Kenedougou","Commune_Ph":"SAMOROGOUAN","TYPE":"Balafon Samogho et toussian","Nom":"Banankoro"},"geometry":{"type":"Point","coordinates":[-4.969313,11.481328]}},{"type":"Feature","properties":{"Province":"Kenedougou","Commune_Ph":"SAMOROGOUAN","TYPE":"Balafon Samogho et toussian","Nom":"Sana"},"geometry":{"type":"Point","coordinates":[-4.994386,11.554081]}},{"type":"Feature","properties":{"Province":"Kenedougou","Commune_Ph":"SAMOROGOUAN","TYPE":"Balafon Samogho et toussian","Nom":"Katafona"},"geometry":{"type":"Point","coordinates":[-4.944403,11.563649]}},{"type":"Feature","properties":{"Province":"Kenedougou","Commune_Ph":"SAMOROGOUAN","TYPE":"Balafon Samogho et toussian","Nom":"Konkolikoro"},"geometry":{"type":"Point","coordinates":[-4.957026,11.599231]}},{"type":"Feature","properties":{"Province":"Kenedougou","Commune_Ph":"SAMOROGOUAN","TYPE":"Balafon Samogho et toussian","Nom":"Sokoro"},"geometry":{"type":"Point","coordinates":[-4.999965,11.625773]}},{"type":"Feature","properties":{"Province":"Kenedougou","Commune_Ph":"SAMOGOHIRI","TYPE":"Balafon Samogho et toussian","Nom":"Samogoyiri"},"geometry":{"type":"Point","coordinates":[-5.120748,10.928146]}},{"type":"Feature","properties":{"Province":"Kenedougou","Commune_Ph":"SAMOGOHIRI","TYPE":"Balafon Samogho et toussian","Nom":"Niale"},"geometry":{"type":"Point","coordinates":[-5.012821,11.075982]}},{"type":"Feature","properties":{"Province":"Kenedougou","Commune_Ph":"SAMOGOHIRI","TYPE":"Balafon Samogho et toussian","Nom":"Tionzebougou"},"geometry":{"type":"Point","coordinates":[-5.08258,11.095719]}},{"type":"Feature","properties":{"Province":"Kenedougou","Commune_Ph":"SAMOGOHIRI","TYPE":"Balafon Samogho et toussian","Nom":"Imatoro"},"geometry":{"type":"Point","coordinates":[-5.073313,11.05069]}},{"type":"Feature","properties":{"Province":"Kenedougou","Commune_Ph":"SAMOGOHIRI","TYPE":"Balafon Samogho et toussian","Nom":"Teledougou"},"geometry":{"type":"Point","coordinates":[-5.081388,10.982403]}},{"type":"Feature","properties":{"Province":"Kenedougou","Commune_Ph":"SAMOGOHIRI","TYPE":"Balafon Samogho et toussian","Nom":"Samogoyiri"},"geometry":{"type":"Point","coordinates":[-5.120748,10.928146]}},{"type":"Feature","properties":{"Province":"Kenedougou","Commune_Ph":"SAMOGOHIRI","TYPE":"Balafon Samogho et toussian","Nom":"Saraba"},"geometry":{"type":"Point","coordinates":[-5.053916,10.862512]}},{"type":"Feature","properties":{"Province":"Kenedougou","Commune_Ph":"SAMOGOHIRI","TYPE":"Balafon Samogho et toussian","Nom":"Sokouraba"},"geometry":{"type":"Point","coordinates":[-5.172407,10.840458]}},{"type":"Feature","properties":{"Province":"Kenedougou","Commune_Ph":"SAMOGOHIRI","TYPE":"Balafon Samogho et toussian","Nom":"Todje"},"geometry":{"type":"Point","coordinates":[-5.084505,10.841734]}},{"type":"Feature","properties":{"Province":"Kenedougou","Commune_Ph":"SAMOGOHIRI","TYPE":"Balafon Samogho et toussian","Nom":"Ngalama"},"geometry":{"type":"Point","coordinates":[-5.191522,10.890284]}},{"type":"Feature","properties":{"Province":"Kenedougou","Commune_Ph":"SAMOGOHIRI","TYPE":"Balafon Samogho et toussian","Nom":"Lougoua"},"geometry":{"type":"Point","coordinates":[-5.140674,10.962307]}},{"type":"Feature","properties":{"Province":"Kenedougou","Commune_Ph":"SAMOGOHIRI","TYPE":"Balafon Samogho et toussian","Nom":"Mongonon"},"geometry":{"type":"Point","coordinates":[-5.044649,10.867283]}},{"type":"Feature","properties":{"Province":"Tuy","Commune_Ph":"HOUNDE","TYPE":"Balafon Bwa","Nom":"Touaho"},"geometry":{"type":"Point","coordinates":[-3.518138,11.671818]}},{"type":"Feature","properties":{"Province":"Tuy","Commune_Ph":"HOUNDE","TYPE":"Balafon Bwa","Nom":"Sieni"},"geometry":{"type":"Point","coordinates":[-3.536127,11.656195]}},{"type":"Feature","properties":{"Province":"Tuy","Commune_Ph":"HOUNDE","TYPE":"Balafon Bwa","Nom":"Thiombouy"},"geometry":{"type":"Point","coordinates":[-3.54129,11.60765]}},{"type":"Feature","properties":{"Province":"Tuy","Commune_Ph":"HOUNDE","TYPE":"Balafon Bwa","Nom":"Dohoun"},"geometry":{"type":"Point","coordinates":[-3.604771,11.54631]}},{"type":"Feature","properties":{"Province":"Tuy","Commune_Ph":"HOUNDE","TYPE":"Balafon Bwa","Nom":"Bouere"},"geometry":{"type":"Point","coordinates":[-3.685267,11.495563]}},{"type":"Feature","properties":{"Province":"Tuy","Commune_Ph":"HOUNDE","TYPE":"Balafon Bwa","Nom":"Baouhoun"},"geometry":{"type":"Point","coordinates":[-3.767533,11.486767]}},{"type":"Feature","properties":{"Province":"Tuy","Commune_Ph":"HOUNDE","TYPE":"Balafon Bwa","Nom":"Laho"},"geometry":{"type":"Point","coordinates":[-3.825333,11.437063]}},{"type":"Feature","properties":{"Province":"Tuy","Commune_Ph":"HOUNDE","TYPE":"Balafon Bwa","Nom":"Bohokari"},"geometry":{"type":"Point","coordinates":[-3.847478,11.393269]}},{"type":"Feature","properties":{"Province":"Tuy","Commune_Ph":"HOUNDE","TYPE":"Balafon Bwa","Nom":"Kari"},"geometry":{"type":"Point","coordinates":[-3.619455,11.387137]}},{"type":"Feature","properties":{"Province":"Tuy","Commune_Ph":"HOUNDE","TYPE":"Balafon Bwa","Nom":"Dankari"},"geometry":{"type":"Point","coordinates":[-3.624145,11.348078]}},{"type":"Feature","properties":{"Province":"Tuy","Commune_Ph":"HOUNDE","TYPE":"Balafon Bwa","Nom":"Kiere"},"geometry":{"type":"Point","coordinates":[-3.478064,11.662374]}},{"type":"Feature","properties":{"Province":"Tuy","Commune_Ph":"BEREBA","TYPE":"Balafon Bwa","Nom":"Bereba"},"geometry":{"type":"Point","coordinates":[-3.685338,11.623133]}},{"type":"Feature","properties":{"Province":"Tuy","Commune_Ph":"BEREBA","TYPE":"Balafon Bwa","Nom":"Wani"},"geometry":{"type":"Point","coordinates":[-3.567426,11.726472]}},{"type":"Feature","properties":{"Province":"Tuy","Commune_Ph":"BEREBA","TYPE":"Balafon Bwa","Nom":"Koura"},"geometry":{"type":"Point","coordinates":[-3.668556,11.716831]}},{"type":"Feature","properties":{"Province":"Tuy","Commune_Ph":"BEREBA","TYPE":"Balafon Bwa","Nom":"Tiompio"},"geometry":{"type":"Point","coordinates":[-3.611138,11.715612]}},{"type":"Feature","properties":{"Province":"Tuy","Commune_Ph":"BEREBA","TYPE":"Balafon Bwa","Nom":"Woro"},"geometry":{"type":"Point","coordinates":[-3.681981,11.705839]}},{"type":"Feature","properties":{"Province":"Tuy","Commune_Ph":"BEREBA","TYPE":"Balafon Bwa","Nom":"Kindeni"},"geometry":{"type":"Point","coordinates":[-3.693581,11.695439]}},{"type":"Feature","properties":{"Province":"Tuy","Commune_Ph":"BEREBA","TYPE":"Balafon Bwa","Nom":"Popioho"},"geometry":{"type":"Point","coordinates":[-3.698993,11.687351]}},{"type":"Feature","properties":{"Province":"Tuy","Commune_Ph":"BEREBA","TYPE":"Balafon Bwa","Nom":"Ouakuy"},"geometry":{"type":"Point","coordinates":[-3.644738,11.678543]}},{"type":"Feature","properties":{"Province":"Tuy","Commune_Ph":"BEREBA","TYPE":"Balafon Bwa","Nom":"Bomba"},"geometry":{"type":"Point","coordinates":[-3.61544,11.677531]}},{"type":"Feature","properties":{"Province":"Tuy","Commune_Ph":"BEREBA","TYPE":"Balafon Bwa","Nom":"Duo"},"geometry":{"type":"Point","coordinates":[-3.659528,11.663127]}},{"type":"Feature","properties":{"Province":"Tuy","Commune_Ph":"BEREBA","TYPE":"Balafon Bwa","Nom":"Dumian"},"geometry":{"type":"Point","coordinates":[-3.671307,11.655178]}},{"type":"Feature","properties":{"Province":"Tuy","Commune_Ph":"BEREBA","TYPE":"Balafon Bwa","Nom":"Dourou"},"geometry":{"type":"Point","coordinates":[-3.760584,11.62629]}},{"type":"Feature","properties":{"Province":"Tuy","Commune_Ph":"BEREBA","TYPE":"Balafon Bwa","Nom":"Dorokuy"},"geometry":{"type":"Point","coordinates":[-3.708255,11.598815]}},{"type":"Feature","properties":{"Province":"Tuy","Commune_Ph":"BEREBA","TYPE":"Balafon Bwa","Nom":"Bekuy-Ouest"},"geometry":{"type":"Point","coordinates":[-3.732686,11.597326]}},{"type":"Feature","properties":{"Province":"Tuy","Commune_Ph":"BEREBA","TYPE":"Balafon Bwa","Nom":"Tioro"},"geometry":{"type":"Point","coordinates":[-3.645815,11.592848]}},{"type":"Feature","properties":{"Province":"Tuy","Commune_Ph":"BEREBA","TYPE":"Balafon Bwa","Nom":"Yabe"},"geometry":{"type":"Point","coordinates":[-3.777849,11.577295]}},{"type":"Feature","properties":{"Province":"Tuy","Commune_Ph":"BEREBA","TYPE":"Balafon Bwa","Nom":"Boho-Bereba"},"geometry":{"type":"Point","coordinates":[-3.752694,11.560831]}},{"type":"Feature","properties":{"Province":"Tuy","Commune_Ph":"BEREBA","TYPE":"Balafon Bwa","Nom":"Maro"},"geometry":{"type":"Point","coordinates":[-3.80899,11.534012]}},{"type":"Feature","properties":{"Province":"Tuy","Commune_Ph":"BEREBA","TYPE":"Balafon Bwa","Nom":"Kassaho"},"geometry":{"type":"Point","coordinates":[-3.747834,11.533362]}},{"type":"Feature","properties":{"Province":"Tuy","Commune_Ph":"BEREBA","TYPE":"Balafon Bwa","Nom":"Lofikahoun"},"geometry":{"type":"Point","coordinates":[-3.676514,11.627042]}},{"type":"Feature","properties":{"Province":"Tuy","Commune_Ph":"BEREBA","TYPE":"Balafon Bwa","Nom":"Bihoun"},"geometry":{"type":"Point","coordinates":[-3.587136,11.695143]}},{"type":"Feature","properties":{"Province":"Tuy","Commune_Ph":"BEREBA","TYPE":"Balafon Bwa","Nom":"Duokuy"},"geometry":{"type":"Point","coordinates":[-3.679928,11.668976]}},{"type":"Feature","properties":{"Province":"Tuy","Commune_Ph":"KOTI","TYPE":"Balafon Bwa","Nom":"Koti"},"geometry":{"type":"Point","coordinates":[-3.055565,11.392957]}},{"type":"Feature","properties":{"Province":"Tuy","Commune_Ph":"KOTI","TYPE":"Balafon Bwa","Nom":"Indeni"},"geometry":{"type":"Point","coordinates":[-2.927643,11.425456]}},{"type":"Feature","properties":{"Province":"Tuy","Commune_Ph":"KOTI","TYPE":"Balafon Bwa","Nom":"Zangoui"},"geometry":{"type":"Point","coordinates":[-2.931647,11.357593]}},{"type":"Feature","properties":{"Province":"Tuy","Commune_Ph":"KOTI","TYPE":"Balafon Bwa","Nom":"Kayao"},"geometry":{"type":"Point","coordinates":[-2.88576,11.351583]}},{"type":"Feature","properties":{"Province":"Tuy","Commune_Ph":"KOTI","TYPE":"Balafon Bwa","Nom":"Haba"},"geometry":{"type":"Point","coordinates":[-2.865658,11.397137]}},{"type":"Feature","properties":{"Province":"Tuy","Commune_Ph":"KOTI","TYPE":"Balafon Bwa","Nom":"Gbatare"},"geometry":{"type":"Point","coordinates":[-2.997342,11.416087]}},{"type":"Feature","properties":{"Province":"Tuy","Commune_Ph":"KOTI","TYPE":"Balafon Bwa","Nom":"Poa"},"geometry":{"type":"Point","coordinates":[-3.001724,11.446411]}},{"type":"Feature","properties":{"Province":"Tuy","Commune_Ph":"KOTI","TYPE":"Balafon Bwa","Nom":"Djinjerma"},"geometry":{"type":"Point","coordinates":[-3.053369,11.363655]}},{"type":"Feature","properties":{"Province":"Tuy","Commune_Ph":"KOTI","TYPE":"Balafon Bwa","Nom":"Bonzan-Pougouli"},"geometry":{"type":"Point","coordinates":[-3.114077,11.356801]}},{"type":"Feature","properties":{"Province":"Tuy","Commune_Ph":"BONI","TYPE":"Balafon Bwa","Nom":"Boni"},"geometry":{"type":"Point","coordinates":[-3.398623,11.561182]}},{"type":"Feature","properties":{"Province":"Tuy","Commune_Ph":"BONI","TYPE":"Balafon Bwa","Nom":"Banhoun"},"geometry":{"type":"Point","coordinates":[-3.359817,11.523964]}},{"type":"Feature","properties":{"Province":"Tuy","Commune_Ph":"BONI","TYPE":"Balafon Bwa","Nom":"Dossi"},"geometry":{"type":"Point","coordinates":[-3.395139,11.509195]}},{"type":"Feature","properties":{"Province":"Tuy","Commune_Ph":"FOUNZAN","TYPE":"Balafon Bwa","Nom":"Founzan"},"geometry":{"type":"Point","coordinates":[-3.228644,11.453936]}},{"type":"Feature","properties":{"Province":"Tuy","Commune_Ph":"FOUNZAN","TYPE":"Balafon Bwa","Nom":"Koulotto"},"geometry":{"type":"Point","coordinates":[-3.192181,11.492235]}},{"type":"Feature","properties":{"Province":"Tuy","Commune_Ph":"FOUNZAN","TYPE":"Balafon Bwa","Nom":"Lobougou"},"geometry":{"type":"Point","coordinates":[-3.164515,11.457244]}},{"type":"Feature","properties":{"Province":"Tuy","Commune_Ph":"FOUNZAN","TYPE":"Balafon Bwa","Nom":"Lollio"},"geometry":{"type":"Point","coordinates":[-3.254931,11.42625]}},{"type":"Feature","properties":{"Province":"Tuy","Commune_Ph":"FOUNZAN","TYPE":"Balafon Bwa","Nom":"Kovio"},"geometry":{"type":"Point","coordinates":[-3.312872,11.404688]}},{"type":"Feature","properties":{"Province":"Tuy","Commune_Ph":"FOUNZAN","TYPE":"Balafon Bwa","Nom":"Pana"},"geometry":{"type":"Point","coordinates":[-3.178048,11.38495]}},{"type":"Feature","properties":{"Province":"Tuy","Commune_Ph":"FOUNZAN","TYPE":"Balafon Bwa","Nom":"Batiene"},"geometry":{"type":"Point","coordinates":[-3.253257,11.357429]}},{"type":"Feature","properties":{"Province":"Tuy","Commune_Ph":"FOUNZAN","TYPE":"Balafon Bwa","Nom":"Yerfing"},"geometry":{"type":"Point","coordinates":[-3.349132,11.335065]}},{"type":"Feature","properties":{"Province":"Tuy","Commune_Ph":"FOUNZAN","TYPE":"Balafon Bwa","Nom":"Fing"},"geometry":{"type":"Point","coordinates":[-3.284835,11.334601]}},{"type":"Feature","properties":{"Province":"Tuy","Commune_Ph":"FOUNZAN","TYPE":"Balafon Bwa","Nom":"Yehoun"},"geometry":{"type":"Point","coordinates":[-3.397321,11.304844]}},{"type":"Feature","properties":{"Province":"Tuy","Commune_Ph":"FOUNZAN","TYPE":"Balafon Bwa","Nom":"Nahi"},"geometry":{"type":"Point","coordinates":[-3.266529,11.298579]}},{"type":"Feature","properties":{"Province":"Tuy","Commune_Ph":"FOUNZAN","TYPE":"Balafon Bwa","Nom":"Sambio"},"geometry":{"type":"Point","coordinates":[-3.294102,11.254944]}},{"type":"Feature","properties":{"Province":"Tuy","Commune_Ph":"FOUNZAN","TYPE":"Balafon Bwa","Nom":"Banere"},"geometry":{"type":"Point","coordinates":[-3.360864,11.21146]}},{"type":"Feature","properties":{"Province":"Tuy","Commune_Ph":"FOUNZAN","TYPE":"Balafon Bwa","Nom":"Bouzan"},"geometry":{"type":"Point","coordinates":[-3.21914,11.422716]}},{"type":"Feature","properties":{"Province":"Tuy","Commune_Ph":"BEKUY","TYPE":"Balafon Bwa","Nom":"Bekuy"},"geometry":{"type":"Point","coordinates":[-3.889808,11.63698]}},{"type":"Feature","properties":{"Province":"Tuy","Commune_Ph":"BEKUY","TYPE":"Balafon Bwa","Nom":"Sara"},"geometry":{"type":"Point","coordinates":[-3.837093,11.720285]}},{"type":"Feature","properties":{"Province":"Tuy","Commune_Ph":"KOUMBIA","TYPE":"Balafon Bwa","Nom":"Koumbia"},"geometry":{"type":"Point","coordinates":[-3.695941,11.235393]}},{"type":"Feature","properties":{"Province":"Tuy","Commune_Ph":"KOUMBIA","TYPE":"Balafon Bwa","Nom":"Pe"},"geometry":{"type":"Point","coordinates":[-3.534616,11.296968]}},{"type":"Feature","properties":{"Province":"Tuy","Commune_Ph":"KOUMBIA","TYPE":"Balafon Bwa","Nom":"Sebedougou"},"geometry":{"type":"Point","coordinates":[-3.606692,11.272024]}},{"type":"Feature","properties":{"Province":"Tuy","Commune_Ph":"KOUMBIA","TYPE":"Balafon Bwa","Nom":"Waly"},"geometry":{"type":"Point","coordinates":[-3.706429,11.220365]}},{"type":"Feature","properties":{"Province":"Tuy","Commune_Ph":"KOUMBIA","TYPE":"Balafon Bwa","Nom":"Kongolikan"},"geometry":{"type":"Point","coordinates":[-3.750989,11.215264]}},{"type":"Feature","properties":{"Province":"Tuy","Commune_Ph":"KOUMBIA","TYPE":"Balafon Bwa","Nom":"Dougoumato 1"},"geometry":{"type":"Point","coordinates":[-3.766316,11.212856]}},{"type":"Feature","properties":{"Province":"Tuy","Commune_Ph":"KOUMBIA","TYPE":"Balafon Bwa","Nom":"Gombeledougou"},"geometry":{"type":"Point","coordinates":[-3.553525,11.185192]}}],"_umap_options":{"displayOnLoad":true,"inCaption":true,"browsable":true,"editMode":"advanced","name":"AUTRES_SITES BALAFON.kml","id":2766905,"remoteData":{},"type":"Cluster","cluster":{},"color":"Olive","iconClass":"Circle","popupShape":"Default","labelKey":"Nom"}}
